{"type": "FeatureCollection","features": [
  {"type": "Feature", "id": "6955593445511971517", "geometry": {"type": "Point", "coordinates": [11.413507, 57.891725]}, "properties": {"place": "Vrak, 43m"}},
  {"type": "Feature", "id": "-7632891377547496667", "geometry": {"type": "Point", "coordinates": [11.394410, 57.897998]}, "properties": {"place": "Vrak, 43m"}},
  {"type": "Feature", "id": "-3722829406211154872", "geometry": {"type": "Point", "coordinates": [11.364155, 57.914118]}, "properties": {"place": "Vrak, 51m"}},
  {"type": "Feature", "id": "-8020181271518857864", "geometry": {"type": "Point", "coordinates": [11.346023, 57.902332]}, "properties": {"place": "Vrak, 65m"}},
  {"type": "Feature", "id": "-6317510780492776369", "geometry": {"type": "Point", "coordinates": [11.326197, 57.905328]}, "properties": {"place": "Vrak, 63"}},
  {"type": "Feature", "id": "7450108774825654316", "geometry": {"type": "Point", "coordinates": [11.346258, 57.849895]}, "properties": {"place": "Vrak, 43m"}},
  {"type": "Feature", "id": "-1265386873040810813", "geometry": {"type": "Point", "coordinates": [11.315382, 57.846070]}, "properties": {"place": "Vrak, 81m"}},
  {"type": "Feature", "id": "7057106857745505452", "geometry": {"type": "Point", "coordinates": [11.303988, 57.933808]}, "properties": {"place": "Vrak, 61m"}},
  {"type": "Feature", "id": "-2494283069244594489", "geometry": {"type": "Point", "coordinates": [11.333257, 57.960047]}, "properties": {"place": "Vrak, 45m"}},
  {"type": "Feature", "id": "-4861135789043371530", "geometry": {"type": "Point", "coordinates": [11.333385, 57.967080]}, "properties": {"place": "Vrak, 46m"}},
  {"type": "Feature", "id": "-1110550354850208903", "geometry": {"type": "Point", "coordinates": [11.287422, 57.961572]}, "properties": {"place": "Vrak, 64m"}},
  {"type": "Feature", "id": "-8997066370703500558", "geometry": {"type": "Point", "coordinates": [11.296648, 57.979802]}, "properties": {"place": "Vrak, 53m"}},
  {"type": "Feature", "id": "-2439463658209867656", "geometry": {"type": "Point", "coordinates": [11.223222, 57.969425]}, "properties": {"place": "Vrak, 100m"}},
  {"type": "Feature", "id": "7331409824933126501", "geometry": {"type": "Point", "coordinates": [11.446208, 57.791813]}, "properties": {"place": "Vrak, 42m"}},
  {"type": "Feature", "id": "-5989508257488082733", "geometry": {"type": "Point", "coordinates": [11.458933, 57.752828]}, "properties": {"place": "Vrak, 58m"}},
  {"type": "Feature", "id": "8241287024109214518", "geometry": {"type": "Point", "coordinates": [11.422305, 57.749542]}, "properties": {"place": "Vrak"}},
  {"type": "Feature", "id": "-7575977559135877737", "geometry": {"type": "Point", "coordinates": [11.376557, 57.701007]}, "properties": {"place": "Vrak, 88m"}},
  {"type": "Feature", "id": "1807195335218481115", "geometry": {"type": "Point", "coordinates": [11.279097, 57.655183]}, "properties": {"place": "Vrak, 41m"}},
  {"type": "Feature", "id": "-4696969878397994714", "geometry": {"type": "Point", "coordinates": [12.653717, 57.753687]}, "properties": {"place": "Vrak, 43m"}},
  {"type": "Feature", "id": "-8152167684633413556", "geometry": {"type": "Point", "coordinates": [11.697133, 57.865302]}, "properties": {"place": "Vrak, 52m"}},
  {"type": "Feature", "id": "8149297708296579429", "geometry": {"type": "Point", "coordinates": [11.165550, 57.753633]}, "properties": {"place": "Vrak, 45m"}},
  {"type": "Feature", "id": "3873639351292992353", "geometry": {"type": "Point", "coordinates": [11.496683, 57.750650]}, "properties": {"place": "Vrak, 34m"}},
  {"type": "Feature", "id": "5324386600309944581", "geometry": {"type": "Point", "coordinates": [11.475583, 57.839967]}, "properties": {"place": "Vrak, 44m"}},
  {"type": "Feature", "id": "-8417734822814982839", "geometry": {"type": "Point", "coordinates": [11.272867, 57.734050]}, "properties": {"place": "Vrak, 51m"}},
  {"type": "Feature", "id": "5717006322012862079", "geometry": {"type": "Point", "coordinates": [11.190200, 57.680350]}, "properties": {"place": "Vrak, 38m"}},
  {"type": "Feature", "id": "4631142310489765480", "geometry": {"type": "Point", "coordinates": [11.187950, 57.910850]}, "properties": {"place": "Vrak, 69m"}},
  {"type": "Feature", "id": "-383628601914806694", "geometry": {"type": "Point", "coordinates": [11.160700, 57.905567]}, "properties": {"place": "Vrak, 65m"}},
  {"type": "Feature", "id": "3413632327035863512", "geometry": {"type": "Point", "coordinates": [11.478633, 57.867383]}, "properties": {"place": "Vrak, 36"}},
  {"type": "Feature", "id": "1160110578184081399", "geometry": {"type": "Point", "coordinates": [11.415717, 57.841583]}, "properties": {"place": "Plattform"}},
  {"type": "Feature", "id": "-7345975782679207843", "geometry": {"type": "Point", "coordinates": [11.421750, 57.906600]}, "properties": {"place": "Vrakrester, skräp"}},
  {"type": "Feature", "id": "8206449483256653312", "geometry": {"type": "Point", "coordinates": [11.081000, 57.700667]}, "properties": {"place": "Lake Placid, Vrak"}},
  {"type": "Feature", "id": "8031996068718567949", "geometry": {"type": "Point", "coordinates": [11.389833, 57.754167]}, "properties": {"place": "29m, Bergstopp - bra för bleka, torsk och sej"}},
  {"type": "Feature", "id": "-1724035089550508211", "geometry": {"type": "Point", "coordinates": [11.393500, 57.866667]}, "properties": {"place": "48m, Berg"}},
  {"type": "Feature", "id": "1449723941996333374", "geometry": {"type": "Point", "coordinates": [11.407000, 57.885833]}, "properties": {"place": "Trollebön, 35m, Berg - fint område för bl a långa"}},
  {"type": "Feature", "id": "8978096070028472945", "geometry": {"type": "Point", "coordinates": [11.061500, 58.176167]}, "properties": {"place": "Enö, 100m, Vrak"}},
  {"type": "Feature", "id": "6129335302884530897", "geometry": {"type": "Point", "coordinates": [11.609833, 57.567000]}, "properties": {"place": "Torsten, 35-45m, Vrak"}},
  {"type": "Feature", "id": "2300047180952416224", "geometry": {"type": "Point", "coordinates": [11.364833, 57.700000]}, "properties": {"place": "38-30m, Vrak"}},
  {"type": "Feature", "id": "-5863947826119914263", "geometry": {"type": "Point", "coordinates": [11.435500, 57.731167]}, "properties": {"place": "Lake Placid, Vrak"}},
  {"type": "Feature", "id": "5261478799034127479", "geometry": {"type": "Point", "coordinates": [11.436333, 57.733667]}, "properties": {"place": "Pölsebergen, 30m, Berg - bra för makrill, torsk och sej"}},
  {"type": "Feature", "id": "-6045402683159679746", "geometry": {"type": "Point", "coordinates": [11.099000, 57.736333]}, "properties": {"place": "Amors Constanza, 44-34m, Vrak - fin position för bl a bleka, långa och torsk"}},
  {"type": "Feature", "id": "-4595165363009994876", "geometry": {"type": "Point", "coordinates": [11.100833, 57.743833]}, "properties": {"place": "Gitano, 41-37m, Vrak"}},
  {"type": "Feature", "id": "6016630836246548469", "geometry": {"type": "Point", "coordinates": [11.404167, 57.744833]}, "properties": {"place": "Pölsebergen, 20m, Bergstopp - bra för makrill, torsk och sej"}},
  {"type": "Feature", "id": "3911148930455018264", "geometry": {"type": "Point", "coordinates": [11.827795, 58.251107]}, "properties": {"place": "Hohenhorn, 53m, Vrak"}},
  {"type": "Feature", "id": "7039733250560773783", "geometry": {"type": "Point", "coordinates": [11.135333, 57.750167]}, "properties": {"place": "Carolus, 52-34m, Vrak"}},
  {"type": "Feature", "id": "449536317819782067", "geometry": {"type": "Point", "coordinates": [11.425833, 57.750833]}, "properties": {"place": "Pölsebergen"}},
  {"type": "Feature", "id": "-5391933906685954566", "geometry": {"type": "Point", "coordinates": [11.111167, 57.753333]}, "properties": {"place": "44-32m, Vrak - bra position för stor sej"}},
  {"type": "Feature", "id": "-7607741353591293555", "geometry": {"type": "Point", "coordinates": [11.442500, 57.754167]}, "properties": {"place": "19 metaren, 19m"}},
  {"type": "Feature", "id": "-6113480078949780799", "geometry": {"type": "Point", "coordinates": [11.432167, 57.757667]}, "properties": {"place": "Pölsebergen"}},
  {"type": "Feature", "id": "8504584647262473699", "geometry": {"type": "Point", "coordinates": [11.524167, 57.763667]}, "properties": {"place": "Pölsebergen"}},
  {"type": "Feature", "id": "-1660928011142904430", "geometry": {"type": "Point", "coordinates": [11.403500, 57.771667]}, "properties": {"place": "Pölsebergen"}},
  {"type": "Feature", "id": "2216173651085836034", "geometry": {"type": "Point", "coordinates": [11.131500, 57.772333]}, "properties": {"place": "ST Cricket, 95m, Vrak"}},
  {"type": "Feature", "id": "8054055134461868373", "geometry": {"type": "Point", "coordinates": [11.132833, 57.772500]}, "properties": {"place": "SS Solid, 45-39m, Vrak"}},
  {"type": "Feature", "id": "-2422118032881659918", "geometry": {"type": "Point", "coordinates": [11.123500, 57.773333]}, "properties": {"place": "Ernst, 45-37m, Vrak"}},
  {"type": "Feature", "id": "-3055689185665906777", "geometry": {"type": "Point", "coordinates": [11.125000, 57.774833]}, "properties": {"place": "Amsel, 100m, Vrak"}},
  {"type": "Feature", "id": "-8792435627372600281", "geometry": {"type": "Point", "coordinates": [11.316667, 57.775000]}, "properties": {"place": "Eisbärg, 59m, Vrak"}},
  {"type": "Feature", "id": "-2649196956248952641", "geometry": {"type": "Point", "coordinates": [11.401667, 57.775167]}, "properties": {"place": "Ångaren 1944, 50m, Vrak"}},
  {"type": "Feature", "id": "-7199176679959576108", "geometry": {"type": "Point", "coordinates": [11.405500, 57.775333]}, "properties": {"place": "14 metaren, 14m"}},
  {"type": "Feature", "id": "7207868495795541378", "geometry": {"type": "Point", "coordinates": [11.474500, 57.775667]}, "properties": {"place": "Pölsebergen"}},
  {"type": "Feature", "id": "5183950647411224295", "geometry": {"type": "Point", "coordinates": [11.522167, 57.777000]}, "properties": {"place": "Pölsans Fyr"}},
  {"type": "Feature", "id": "-4008486766143108702", "geometry": {"type": "Point", "coordinates": [11.454500, 57.778000]}, "properties": {"place": "Westfalen/Erna, 42m, Vrak - bra för en rad arter, bl a bleka, långa, torsk och sej"}},
  {"type": "Feature", "id": "3822525151578964104", "geometry": {"type": "Point", "coordinates": [11.456667, 57.782500]}, "properties": {"place": "Pölsebergen, 18-60m"}},
  {"type": "Feature", "id": "1972647877956649285", "geometry": {"type": "Point", "coordinates": [11.452500, 57.783500]}, "properties": {"place": "Pölsebergen"}},
  {"type": "Feature", "id": "-339161519334480624", "geometry": {"type": "Point", "coordinates": [11.360333, 57.787167]}, "properties": {"place": "Pölsebergen, 64-95m, Berg"}},
  {"type": "Feature", "id": "6189488158943712683", "geometry": {"type": "Point", "coordinates": [11.115000, 57.767500]}, "properties": {"place": "Ernst, 42-45m, Vrak"}},
  {"type": "Feature", "id": "5771314029699831378", "geometry": {"type": "Point", "coordinates": [11.432333, 57.788000]}, "properties": {"place": "Kong Halfdan, 42-50m, Vrak"}},
  {"type": "Feature", "id": "1761014370115320461", "geometry": {"type": "Point", "coordinates": [11.380000, 57.800500]}, "properties": {"place": "Torskberget, Som namnet antyder, bra plats för torsk"}},
  {"type": "Feature", "id": "2825961900274734081", "geometry": {"type": "Point", "coordinates": [11.389667, 57.801333]}, "properties": {"place": "Marstrandsbergen, 50m, Berg som hyser bra fiske på havskatt, långa och torsk"}},
  {"type": "Feature", "id": "2517383635135046369", "geometry": {"type": "Point", "coordinates": [11.416667, 57.819667]}, "properties": {"place": "Arnes topp, 36m, Berg - bleka, havskatt, långa och torsk"}},
  {"type": "Feature", "id": "-2212414539166420388", "geometry": {"type": "Point", "coordinates": [11.396500, 57.871167]}, "properties": {"place": "Lubbegrund, 60-70m"}},
  {"type": "Feature", "id": "-3767641821897779957", "geometry": {"type": "Point", "coordinates": [11.412667, 57.879500]}, "properties": {"place": "Gamla Ljudbojen, 35m, Sten"}},
  {"type": "Feature", "id": "7077525728195734931", "geometry": {"type": "Point", "coordinates": [11.447500, 57.892833]}, "properties": {"place": "Agromayor, Vrak"}},
  {"type": "Feature", "id": "-8467125739752352468", "geometry": {"type": "Point", "coordinates": [11.428000, 57.909667]}, "properties": {"place": "Kafferasta, 35m, Sten och sand - makrill, torsk och vittling"}},
  {"type": "Feature", "id": "119396722682061553", "geometry": {"type": "Point", "coordinates": [11.238667, 57.959500]}, "properties": {"place": "Sketberget, 85-100m, Berg - långa och torsk"}},
  {"type": "Feature", "id": "2670195644179238420", "geometry": {"type": "Point", "coordinates": [11.408167, 57.991500]}, "properties": {"place": "9m"}},
  {"type": "Feature", "id": "5287178307759530322", "geometry": {"type": "Point", "coordinates": [11.377167, 57.998500]}, "properties": {"place": "Sandåsen, 33m, Sten - bleka, torsk, sej och skädda"}},
  {"type": "Feature", "id": "344971156586694189", "geometry": {"type": "Point", "coordinates": [11.220167, 58.002333]}, "properties": {"place": "62m"}},
  {"type": "Feature", "id": "8175878506708711645", "geometry": {"type": "Point", "coordinates": [11.222333, 58.015000]}, "properties": {"place": "Repet, 59-70m, Berg"}},
  {"type": "Feature", "id": "-6424661373129489002", "geometry": {"type": "Point", "coordinates": [11.228000, 58.018167]}, "properties": {"place": "Surprisen, 45-56m, Berg - bra för havskatt, långa, lubb och torsk"}},
  {"type": "Feature", "id": "2070535610417780828", "geometry": {"type": "Point", "coordinates": [11.330833, 58.060833]}, "properties": {"place": "Grunt, Glyskolja"}},
  {"type": "Feature", "id": "-5382134819747940993", "geometry": {"type": "Point", "coordinates": [11.423333, 58.085000]}, "properties": {"place": "Makella, 10m, Vrak"}},
  {"type": "Feature", "id": "-6770697369065679880", "geometry": {"type": "Point", "coordinates": [11.281667, 58.124167]}, "properties": {"place": "Storkatten, Bra position för fiske efter havskatt"}},
  {"type": "Feature", "id": "6085814031834972090", "geometry": {"type": "Point", "coordinates": [11.108667, 57.753500]}, "properties": {"place": "Lobelia, 32-45m, Vrak"}},
  {"type": "Feature", "id": "5713045947673462129", "geometry": {"type": "Point", "coordinates": [11.548833, 57.792667]}, "properties": {"place": "10m, Markerad topp"}},
  {"type": "Feature", "id": "8232295929607805240", "geometry": {"type": "Point", "coordinates": [10.907167, 57.810017]}, "properties": {"place": "Heddernheim, 62m, Vrak"}},
  {"type": "Feature", "id": "5367294979815029488", "geometry": {"type": "Point", "coordinates": [11.316167, 57.655000]}, "properties": {"place": "Feodosia, 52m, Vrak"}},
  {"type": "Feature", "id": "8550738122929257624", "geometry": {"type": "Point", "coordinates": [10.935333, 57.828833]}, "properties": {"place": "Ganler, 50m, Vrak"}},
  {"type": "Feature", "id": "-704078395152198020", "geometry": {"type": "Point", "coordinates": [10.930283, 57.783250]}, "properties": {"place": "Normandie, 36-45m, Vrak"}},
  {"type": "Feature", "id": "8550738122929257624", "geometry": {"type": "Point", "coordinates": [10.935333, 57.828833]}, "properties": {"place": "Inge Birthe, Vrak"}},
  {"type": "Feature", "id": "-1432653861306030770", "geometry": {"type": "Point", "coordinates": [11.380033, 57.662717]}, "properties": {"place": "Juuri/Estländaren, Vrak"}},
  {"type": "Feature", "id": "4438859157021123112", "geometry": {"type": "Point", "coordinates": [10.934517, 57.704967]}, "properties": {"place": "Buenos Aires S/S, 23-38m, Vrak"}},
  {"type": "Feature", "id": "-671489683729535100", "geometry": {"type": "Point", "coordinates": [10.547333, 57.885500]}, "properties": {"place": "Pioner S/S, 98m, Vrak"}},
  {"type": "Feature", "id": "1596343123742497851", "geometry": {"type": "Point", "coordinates": [10.202117, 57.729683]}, "properties": {"place": "Torpedbåt, 41-45m, Vrak"}},
  {"type": "Feature", "id": "-7508916348037494732", "geometry": {"type": "Point", "coordinates": [10.973483, 57.733700]}, "properties": {"place": "Tana, 36-41m, Vrak"}},
  {"type": "Feature", "id": "-8281441692198033137", "geometry": {"type": "Point", "coordinates": [11.110000, 57.753717]}, "properties": {"place": "Henly, 36-44m, Vrak"}},
  {"type": "Feature", "id": "-7773729363939066975", "geometry": {"type": "Point", "coordinates": [11.361617, 57.846833]}, "properties": {"place": "Christians Vrak, 90m, Vrak"}},
  {"type": "Feature", "id": "-4361625463055262932", "geometry": {"type": "Point", "coordinates": [10.802000, 57.762500]}, "properties": {"place": "Nordlyset H88, Vrak"}},
  {"type": "Feature", "id": "6776056285743137046", "geometry": {"type": "Point", "coordinates": [11.162333, 57.920333]}, "properties": {"place": "Ringvraket, 41-45m, Vrak"}},
  {"type": "Feature", "id": "6086896460724072490", "geometry": {"type": "Point", "coordinates": [11.108667, 57.918167]}, "properties": {"place": "Risvraket"}},
  {"type": "Feature", "id": "6024894448692812847", "geometry": {"type": "Point", "coordinates": [11.111667, 58.134333]}, "properties": {"place": "Westvåg"}},
  {"type": "Feature", "id": "-2015028245420588500", "geometry": {"type": "Point", "coordinates": [11.087667, 58.125667]}, "properties": {"place": "Västbank"}},
  {"type": "Feature", "id": "4074457881094066311", "geometry": {"type": "Point", "coordinates": [11.261333, 58.239500]}, "properties": {"place": "AMASIS S/S"}},
  {"type": "Feature", "id": "5009961355848486083", "geometry": {"type": "Point", "coordinates": [11.190000, 58.155000]}, "properties": {"place": "Skytteren"}},
  {"type": "Feature", "id": "1617904957957757345", "geometry": {"type": "Point", "coordinates": [12.003167, 57.317833]}, "properties": {"place": "SATURNUSN S/S"}},
  {"type": "Feature", "id": "6723981381354796820", "geometry": {"type": "Point", "coordinates": [11.887667, 57.100333]}, "properties": {"place": "HERNODIA S/S"}},
  {"type": "Feature", "id": "-4013300812232752700", "geometry": {"type": "Point", "coordinates": [11.849833, 56.850333]}, "properties": {"place": "BLENDA S/S"}},
  {"type": "Feature", "id": "4074457881094066311", "geometry": {"type": "Point", "coordinates": [11.261333, 58.239500]}, "properties": {"place": "Vrak, 133m"}},
  {"type": "Feature", "id": "5009961355848486083", "geometry": {"type": "Point", "coordinates": [11.190000, 58.155000]}, "properties": {"place": "Vrak"}},
  {"type": "Feature", "id": "1617904957957757345", "geometry": {"type": "Point", "coordinates": [12.003167, 57.317833]}, "properties": {"place": "Vrak, 24m"}},
  {"type": "Feature", "id": "6723981381354796820", "geometry": {"type": "Point", "coordinates": [11.887667, 57.100333]}, "properties": {"place": "Vrak, 71m"}},
  {"type": "Feature", "id": "-4013300812232752700", "geometry": {"type": "Point", "coordinates": [11.849833, 56.850333]}, "properties": {"place": "Vrak, 30m"}},
  {"type": "Feature", "id": "-3700542901896531217", "geometry": {"type": "Point", "coordinates": [11.739667, 57.268667]}, "properties": {"place": "Västra Fladen, Grund 27m, Torsk, Katt, Makrill, Pigghaj"}},
  {"type": "Feature", "id": "6259560182862197986", "geometry": {"type": "Point", "coordinates": [11.417500, 57.380000]}, "properties": {"place": "Stora Böchern, Grund 20m, Torsk, Katt, Makrill"}},
  {"type": "Feature", "id": "-6194479477541736501", "geometry": {"type": "Point", "coordinates": [11.386667, 57.310833]}, "properties": {"place": "Lilla Böchern, Grund 19m, Torsk, Katt, Makrill"}},
  {"type": "Feature", "id": "908648135995739494", "geometry": {"type": "Point", "coordinates": [11.344833, 57.481000]}, "properties": {"place": "Elake Måns, Sten, Kattställe"}},
  {"type": "Feature", "id": "-3901211682024458170", "geometry": {"type": "Point", "coordinates": [11.541217, 57.535233]}, "properties": {"place": "Ragua"}},
  {"type": "Feature", "id": "7573499753206656274", "geometry": {"type": "Point", "coordinates": [10.922217, 58.202767]}, "properties": {"place": "Mambo"}},
  {"type": "Feature", "id": "-7028427553689501121", "geometry": {"type": "Point", "coordinates": [11.249183, 58.021050]}, "properties": {"place": "37:an (mitt på)"}},
  {"type": "Feature", "id": "1495985647716220221", "geometry": {"type": "Point", "coordinates": [11.580833, 57.528333]}, "properties": {"place": "Vtin32, 32m, Kuperad bergsbotten"}},
  {"type": "Feature", "id": "-8172546311554743037", "geometry": {"type": "Point", "coordinates": [11.692500, 57.497533]}, "properties": {"place": "Spe20, 20m, Kuperad bergsbotten, Fin kant 20-55m"}},
  {"type": "Feature", "id": "176902725658445096", "geometry": {"type": "Point", "coordinates": [11.349050, 57.522067]}, "properties": {"place": "Tysktopp, 37m, Bergstopp"}},
  {"type": "Feature", "id": "-654026472216756482", "geometry": {"type": "Point", "coordinates": [11.408000, 57.942667]}, "properties": {"place": "14 metarn, 14m, Berg, Kanon topp för agnfisk samt gylta"}},
  {"type": "Feature", "id": "4087896712913395241", "geometry": {"type": "Point", "coordinates": [11.367167, 57.861500]}, "properties": {"place": "52:an, 52m, Berg"}},
  {"type": "Feature", "id": "7905304300001891626", "geometry": {"type": "Point", "coordinates": [11.246333, 58.036000]}, "properties": {"place": "39:an norr om 37:an, 39m, Berg, Blandade arter"}},
  {"type": "Feature", "id": "2536756133751873901", "geometry": {"type": "Point", "coordinates": [11.263500, 58.037667]}, "properties": {"place": "Kullarna, 39m, Berg, Katt och torsk"}},
  {"type": "Feature", "id": "3025086810137421121", "geometry": {"type": "Point", "coordinates": [11.816933, 57.287500]}, "properties": {"place": "Erikeberghällen, Sten/grus/block, Haj och Katt"}},
  {"type": "Feature", "id": "-7389983658000644702", "geometry": {"type": "Point", "coordinates": [11.535667, 57.160333]}, "properties": {"place": "Groves Flak, Grus/Sten, Stort område med kuperad botten"}},
  {"type": "Feature", "id": "212532859304491303", "geometry": {"type": "Point", "coordinates": [11.300200, 57.528267]}, "properties": {"place": "Katteberg, Sten/grus, Kattställe"}},
  {"type": "Feature", "id": "2516208908669478944", "geometry": {"type": "Point", "coordinates": [11.416667, 57.466667]}, "properties": {"place": "Kummelbank, Sten/grus, Bojen på kummelbank"}},
  {"type": "Feature", "id": "-1431389704827557600", "geometry": {"type": "Point", "coordinates": [11.698333, 57.402500]}, "properties": {"place": "Väst Lången, Grusås från SO till NV, Blågyltor, makrill, en del torsk"}},
  {"type": "Feature", "id": "6037970459030419016", "geometry": {"type": "Point", "coordinates": [11.521833, 57.055350]}, "properties": {"place": "Liljan, 70tals ställe kokar av 2kgs vitling"}},
  {"type": "Feature", "id": "-7936924775690714616", "geometry": {"type": "Point", "coordinates": [11.708633, 57.442767]}, "properties": {"place": "Kungaberget, 25m, Grus/block, Blågyltor, en del torsk"}},
  {"type": "Feature", "id": "3314951951772956186", "geometry": {"type": "Point", "coordinates": [11.459050, 57.522567]}, "properties": {"place": "Drepanum S/S, Vrak"}},
  {"type": "Feature", "id": "132366866711292958", "geometry": {"type": "Point", "coordinates": [11.397667, 57.511500]}, "properties": {"place": "Allans vrak, Vrak"}},
  {"type": "Feature", "id": "-1154014969876714955", "geometry": {"type": "Point", "coordinates": [11.594000, 57.281317]}, "properties": {"place": "Ingrid Horn, Vrak"}},
  {"type": "Feature", "id": "-889352692369092416", "geometry": {"type": "Point", "coordinates": [11.366367, 57.540067]}, "properties": {"place": "Emma, Vrak"}},
  {"type": "Feature", "id": "-927278102380816240", "geometry": {"type": "Point", "coordinates": [11.263850, 57.545817]}, "properties": {"place": "Lise Katrin, Vrak"}},
  {"type": "Feature", "id": "-1751975086156588347", "geometry": {"type": "Point", "coordinates": [11.421683, 57.353300]}, "properties": {"place": "Oberon, Vrak"}},
  {"type": "Feature", "id": "-39408629786047523", "geometry": {"type": "Point", "coordinates": [11.254383, 57.565617]}, "properties": {"place": "Syrenen, Vrak"}},
  {"type": "Feature", "id": "-7265513840576872997", "geometry": {"type": "Point", "coordinates": [11.356450, 57.540917]}, "properties": {"place": "Örjan, Vrak"}},
  {"type": "Feature", "id": "-8129425374540010682", "geometry": {"type": "Point", "coordinates": [11.114950, 57.767667]}, "properties": {"place": "Säker pos, Vrak"}},
  {"type": "Feature", "id": "-9058206117404533374", "geometry": {"type": "Point", "coordinates": [11.108833, 57.753217]}, "properties": {"place": "Henly, 7-43m, Vrak"}},
  {"type": "Feature", "id": "-7725082711234864826", "geometry": {"type": "Point", "coordinates": [10.880667, 57.699550]}, "properties": {"place": "Wolturnus S/S, 10-34m, Vrak Längd 57.7m"}},
  {"type": "Feature", "id": "5743287337165083062", "geometry": {"type": "Point", "coordinates": [11.123517, 57.773400]}, "properties": {"place": "Ernst, 6-45m, Vrak Längd 81m"}},
  {"type": "Feature", "id": "-8835229831978691884", "geometry": {"type": "Point", "coordinates": [11.081950, 57.701383]}, "properties": {"place": "Warpath S/S, 38m, Vrak"}},
  {"type": "Feature", "id": "7034554382521234379", "geometry": {"type": "Point", "coordinates": [11.120917, 57.753150]}, "properties": {"place": "Jämtland S/S, 8-42m, Vrak"}},
  {"type": "Feature", "id": "1321057884546491495", "geometry": {"type": "Point", "coordinates": [10.519233, 58.438583]}, "properties": {"place": "Bratten"}},
  {"type": "Feature", "id": "2598391158304447573", "geometry": {"type": "Point", "coordinates": [10.517500, 58.439167]}, "properties": {"place": "Bratten"}},
  {"type": "Feature", "id": "7397722691665464895", "geometry": {"type": "Point", "coordinates": [11.404467, 57.876683]}, "properties": {"place": "Lassemaja"}},
  {"type": "Feature", "id": "2536756133751873901", "geometry": {"type": "Point", "coordinates": [11.263500, 58.037667]}, "properties": {"place": "Kullarna"}},
  {"type": "Feature", "id": "-7722164033486004537", "geometry": {"type": "Point", "coordinates": [11.131833, 58.116167]}, "properties": {"place": "Knallberget"}},
  {"type": "Feature", "id": "-1613325674975003374", "geometry": {"type": "Point", "coordinates": [11.446517, 57.601317]}, "properties": {"place": "Briggen, Vrak"}},
  {"type": "Feature", "id": "5169297941051623803", "geometry": {"type": "Point", "coordinates": [10.525000, 58.448350]}, "properties": {"place": "Novi, Ligger i nord på Bratten, Vrak"}},
  {"type": "Feature", "id": "-1432653861306030770", "geometry": {"type": "Point", "coordinates": [11.380033, 57.662717]}, "properties": {"place": "Juri, Estländaren är ett annat namn på vraket, Vrak"}},
  {"type": "Feature", "id": "1514699143776527712", "geometry": {"type": "Point", "coordinates": [10.493833, 57.943167]}, "properties": {"place": "Lever Maj, Vrak"}},
  {"type": "Feature", "id": "6408233611442886849", "geometry": {"type": "Point", "coordinates": [11.136833, 58.141167]}, "properties": {"place": "Fjutten, Vrak"}},
  {"type": "Feature", "id": "4641795437085115892", "geometry": {"type": "Point", "coordinates": [11.046067, 57.832250]}, "properties": {"place": "Inge Birthe S127, Vrak"}},
  {"type": "Feature", "id": "2908774534345116898", "geometry": {"type": "Point", "coordinates": [11.192167, 58.156333]}, "properties": {"place": "Valkokaren"}},
  {"type": "Feature", "id": "-1025996815061247953", "geometry": {"type": "Point", "coordinates": [10.994500, 58.112667]}, "properties": {"place": "Duvan, 138-148m, Långa, lubb, torsk och sej"}}
]}