{"type": "FeatureCollection","features": [
  {"type": "Feature", "id": "609203345765578792", "geometry": {"type": "Point", "coordinates": [11.090556, 57.701111]}, "properties": {"place": "Lake Placid, Vrak"}},
  {"type": "Feature", "id": "-5255255492831275871", "geometry": {"type": "Point", "coordinates": [11.394167, 57.756944]}, "properties": {"place": "29m, Bergstopp - bra för bleka, torsk och sej"}},
  {"type": "Feature", "id": "3692140838459973598", "geometry": {"type": "Point", "coordinates": [11.435278, 57.915278]}, "properties": {"place": "Kafferasta"}},
  {"type": "Feature", "id": "6120295172909358983", "geometry": {"type": "Point", "coordinates": [11.400278, 57.866667]}, "properties": {"place": "48m, Berg"}},
  {"type": "Feature", "id": "8057723059009069349", "geometry": {"type": "Point", "coordinates": [11.411667, 57.887500]}, "properties": {"place": "Trollebön, 35m, Berg - fint område för bl a långa"}},
  {"type": "Feature", "id": "-1223561896433804614", "geometry": {"type": "Point", "coordinates": [11.069167, 58.182500]}, "properties": {"place": "Enö, 100m, Vrak"}},
  {"type": "Feature", "id": "-3741916637618815730", "geometry": {"type": "Point", "coordinates": [11.616389, 57.567222]}, "properties": {"place": "Torsten, 35-45m, Vrak"}},
  {"type": "Feature", "id": "3208170196899298624", "geometry": {"type": "Point", "coordinates": [11.374722, 57.700000]}, "properties": {"place": "38-30m, Vrak"}},
  {"type": "Feature", "id": "-1020850087768877434", "geometry": {"type": "Point", "coordinates": [11.436944, 57.740833]}, "properties": {"place": "Lake Placid, Vrak"}},
  {"type": "Feature", "id": "9144711483542769683", "geometry": {"type": "Point", "coordinates": [11.438333, 57.733889]}, "properties": {"place": "Pölsebergen, 30m, Berg - bra för makrill, torsk och sej"}},
  {"type": "Feature", "id": "-5121019546483814862", "geometry": {"type": "Point", "coordinates": [11.109444, 57.738333]}, "properties": {"place": "Amors Constanza, 44-34m, Vrak"}},
  {"type": "Feature", "id": "-7776851375794777401", "geometry": {"type": "Point", "coordinates": [11.101389, 57.750833]}, "properties": {"place": "Gitano, 41-37m, Vrak"}},
  {"type": "Feature", "id": "-1832858106861335729", "geometry": {"type": "Point", "coordinates": [11.406944, 57.752500]}, "properties": {"place": "Pölsebergen, 20m, Bergstopp - bra för makrill, torsk och sej"}},
  {"type": "Feature", "id": "-3070655922037450088", "geometry": {"type": "Point", "coordinates": [11.505278, 57.750000]}, "properties": {"place": "Hohenhorn, 53m, Vrak"}},
  {"type": "Feature", "id": "-5628647486280938494", "geometry": {"type": "Point", "coordinates": [11.136667, 57.750278]}, "properties": {"place": "Carolus, 52-34m, Vrak"}},
  {"type": "Feature", "id": "-6625852775217410445", "geometry": {"type": "Point", "coordinates": [11.431944, 57.751389]}, "properties": {"place": "Pölsebergen"}},
  {"type": "Feature", "id": "591271850651576545", "geometry": {"type": "Point", "coordinates": [11.505556, 57.751667]}, "properties": {"place": "Hohenhorn, 47m, Vrak"}},
  {"type": "Feature", "id": "6504545923634881564", "geometry": {"type": "Point", "coordinates": [11.508611, 57.751667]}, "properties": {"place": "Ångaren 1944, Vrak"}},
  {"type": "Feature", "id": "-7245451133713469239", "geometry": {"type": "Point", "coordinates": [11.118611, 57.755556]}, "properties": {"place": "44-32m, Vrak - bra position för stor sej"}},
  {"type": "Feature", "id": "3934640183546831215", "geometry": {"type": "Point", "coordinates": [11.448611, 57.756944]}, "properties": {"place": "19 metaren, 19m"}},
  {"type": "Feature", "id": "-7603706345925849130", "geometry": {"type": "Point", "coordinates": [11.442500, 57.762778]}, "properties": {"place": "Pölsebergen"}},
  {"type": "Feature", "id": "5736292878716014353", "geometry": {"type": "Point", "coordinates": [11.529167, 57.772778]}, "properties": {"place": "Pölsebergen"}},
  {"type": "Feature", "id": "1310970340822909212", "geometry": {"type": "Point", "coordinates": [11.405833, 57.775000]}, "properties": {"place": "Pölsebergen"}},
  {"type": "Feature", "id": "3124451837005175309", "geometry": {"type": "Point", "coordinates": [11.141389, 57.776111]}, "properties": {"place": "ST Cricket, 95m, Vrak"}},
  {"type": "Feature", "id": "-1933795470875365698", "geometry": {"type": "Point", "coordinates": [11.143611, 57.776389]}, "properties": {"place": "SS Solid, 45-39m, Vrak"}},
  {"type": "Feature", "id": "2810470313195589367", "geometry": {"type": "Point", "coordinates": [11.128056, 57.777778]}, "properties": {"place": "Ernst, 45-37m, Vrak"}},
  {"type": "Feature", "id": "1450848806311136618", "geometry": {"type": "Point", "coordinates": [11.130556, 57.780278]}, "properties": {"place": "Amsel, 100m, Vrak"}},
  {"type": "Feature", "id": "-8791299458445944131", "geometry": {"type": "Point", "coordinates": [11.316667, 57.780556]}, "properties": {"place": "Eisbärg, 59m, Vrak"}},
  {"type": "Feature", "id": "-4607331731383863557", "geometry": {"type": "Point", "coordinates": [11.402778, 57.780833]}, "properties": {"place": "Ångaren 1944, 50m, Vrak"}},
  {"type": "Feature", "id": "-85237873748109386", "geometry": {"type": "Point", "coordinates": [11.409167, 57.781111]}, "properties": {"place": "14 metaren, 14m"}},
  {"type": "Feature", "id": "-7898037519619230038", "geometry": {"type": "Point", "coordinates": [11.479722, 57.781667]}, "properties": {"place": "Pölsebergen"}},
  {"type": "Feature", "id": "4363787983807130042", "geometry": {"type": "Point", "coordinates": [11.525833, 57.783889]}, "properties": {"place": "Pölsans Fyr"}},
  {"type": "Feature", "id": "3824400439932008754", "geometry": {"type": "Point", "coordinates": [11.456667, 57.785000]}, "properties": {"place": "Westfalen, 50m, Vrak"}},
  {"type": "Feature", "id": "1864222405540942138", "geometry": {"type": "Point", "coordinates": [11.457778, 57.784722]}, "properties": {"place": "Westfalen, 50m, Vrak"}},
  {"type": "Feature", "id": "-1792845614570660845", "geometry": {"type": "Point", "coordinates": [11.457500, 57.785556]}, "properties": {"place": "Erna, 42m, Vrak - bra för en rad arter, bl a bleka, långa, torsk och sej"}},
  {"type": "Feature", "id": "2597283713374018774", "geometry": {"type": "Point", "coordinates": [11.461111, 57.793056]}, "properties": {"place": "Pölsebergen, 18-60m"}},
  {"type": "Feature", "id": "-3147348136186343306", "geometry": {"type": "Point", "coordinates": [11.454167, 57.783611]}, "properties": {"place": "Pölsebergen"}},
  {"type": "Feature", "id": "560377342606481319", "geometry": {"type": "Point", "coordinates": [11.367222, 57.789722]}, "properties": {"place": "Pölsebergen, 64-95m, Berg"}},
  {"type": "Feature", "id": "7828734574339687069", "geometry": {"type": "Point", "coordinates": [11.106389, 57.738611]}, "properties": {"place": "33-44m, Vrak - fin position för bl a bleka, långa och torsk"}},
  {"type": "Feature", "id": "-3056960481307207702", "geometry": {"type": "Point", "coordinates": [11.125000, 57.768056]}, "properties": {"place": "Ernst, 42-45m, Vrak"}},
  {"type": "Feature", "id": "-1102428360577844635", "geometry": {"type": "Point", "coordinates": [11.435000, 57.792500]}, "properties": {"place": "Kong Halfdan, 42-50m, Vrak"}},
  {"type": "Feature", "id": "-4445528944235723983", "geometry": {"type": "Point", "coordinates": [11.388889, 57.800833]}, "properties": {"place": "Torskberget, Som namnet antyder, bra plats för torsk"}},
  {"type": "Feature", "id": "-7785950192556119579", "geometry": {"type": "Point", "coordinates": [11.393889, 57.802222]}, "properties": {"place": "Marstrandsbergen, 50m, Berg som hyser bra fiske på havskatt, långa och torsk"}},
  {"type": "Feature", "id": "2516523741874725744", "geometry": {"type": "Point", "coordinates": [11.416667, 57.821667]}, "properties": {"place": "Arnes topp, 36m, Berg - bleka, havskatt, långa och torsk"}},
  {"type": "Feature", "id": "1789632130550730078", "geometry": {"type": "Point", "coordinates": [11.405278, 57.874167]}, "properties": {"place": "Lubbegrund, 60-70m"}},
  {"type": "Feature", "id": "9007005712875959230", "geometry": {"type": "Point", "coordinates": [11.421111, 57.888056]}, "properties": {"place": "Gamla Ljudbojen, 35m, Sten"}},
  {"type": "Feature", "id": "-1312843320041947004", "geometry": {"type": "Point", "coordinates": [11.456944, 57.899167]}, "properties": {"place": "Agromayor, Vrak"}},
  {"type": "Feature", "id": "-2017982518050058585", "geometry": {"type": "Point", "coordinates": [11.435556, 57.916111]}, "properties": {"place": "Kafferasta, 35m, Sten och sand - makrill, torsk och vittling"}},
  {"type": "Feature", "id": "848344682350669835", "geometry": {"type": "Point", "coordinates": [11.242222, 57.965833]}, "properties": {"place": "Sketberget, 85-100m, Berg - långa och torsk"}},
  {"type": "Feature", "id": "-2925630431400144716", "geometry": {"type": "Point", "coordinates": [11.413611, 57.996944]}, "properties": {"place": "9m"}},
  {"type": "Feature", "id": "-5745213262625708786", "geometry": {"type": "Point", "coordinates": [11.384167, 58.008611]}, "properties": {"place": "Sandåsen, 33m, Sten - bleka, torsk, sej och skädda"}},
  {"type": "Feature", "id": "-5135353744242961628", "geometry": {"type": "Point", "coordinates": [11.222500, 58.003889]}, "properties": {"place": "62m"}},
  {"type": "Feature", "id": "6718992614744104216", "geometry": {"type": "Point", "coordinates": [11.226111, 58.025000]}, "properties": {"place": "Repet, 59-70m, Berg"}},
  {"type": "Feature", "id": "8829593363128424022", "geometry": {"type": "Point", "coordinates": [11.235556, 58.019167]}, "properties": {"place": "Surprisen, 45-56m, Berg - bra för havskatt, långa, lubb och torsk"}},
  {"type": "Feature", "id": "4757866137268532334", "geometry": {"type": "Point", "coordinates": [11.340278, 58.068056]}, "properties": {"place": "Grunt, Glyskolja"}},
  {"type": "Feature", "id": "1048317062555967293", "geometry": {"type": "Point", "coordinates": [11.427778, 58.086111]}, "properties": {"place": "Makella, 10m, Vrak"}},
  {"type": "Feature", "id": "2850177277081207660", "geometry": {"type": "Point", "coordinates": [11.291667, 58.129167]}, "properties": {"place": "Storkatten, Bra position för fiske efter havskatt"}},
  {"type": "Feature", "id": "7293354170082755324", "geometry": {"type": "Point", "coordinates": [11.114444, 57.755833]}, "properties": {"place": "Lobelia, 32-45m, Vrak"}},
  {"type": "Feature", "id": "6517110678238916498", "geometry": {"type": "Point", "coordinates": [11.559167, 57.798889]}, "properties": {"place": "10m, Markerad topp"}},
  {"type": "Feature", "id": "-5018911601188798870", "geometry": {"type": "Point", "coordinates": [10.911944, 57.816694]}, "properties": {"place": "Heddernheim, 62m, Vrak"}},
  {"type": "Feature", "id": "4442069213158000692", "geometry": {"type": "Point", "coordinates": [11.326944, 57.658333]}, "properties": {"place": "Feodosia, 52m, Vrak"}},
  {"type": "Feature", "id": "-3540112155916740903", "geometry": {"type": "Point", "coordinates": [10.936667, 57.836944]}, "properties": {"place": "Ganler, 50m, Vrak"}},
  {"type": "Feature", "id": "4041547447945598672", "geometry": {"type": "Point", "coordinates": [10.939361, 57.794306]}, "properties": {"place": "Normandie, 36-45m, Vrak"}},
  {"type": "Feature", "id": "-3540112155916740903", "geometry": {"type": "Point", "coordinates": [10.936667, 57.836944]}, "properties": {"place": "Inge Birthe, Vrak"}},
  {"type": "Feature", "id": "-130942538923959896", "geometry": {"type": "Point", "coordinates": [11.388944, 57.671194]}, "properties": {"place": "Juuri/Estländaren, Vrak"}},
  {"type": "Feature", "id": "-8096655472555015473", "geometry": {"type": "Point", "coordinates": [10.935306, 57.708278]}, "properties": {"place": "Buenos Aires S/S, 23-38m, Vrak"}},
  {"type": "Feature", "id": "654016651753129891", "geometry": {"type": "Point", "coordinates": [10.556667, 57.886944]}, "properties": {"place": "Pioner S/S, 98m, Vrak"}},
  {"type": "Feature", "id": "874301703475716945", "geometry": {"type": "Point", "coordinates": [10.203528, 57.738361]}, "properties": {"place": "Torpedbåt, 41-45m, Vrak"}},
  {"type": "Feature", "id": "-8153694060288212423", "geometry": {"type": "Point", "coordinates": [10.978028, 57.733944]}, "properties": {"place": "Tana, 36-41m, Vrak"}},
  {"type": "Feature", "id": "2615397834410940576", "geometry": {"type": "Point", "coordinates": [11.116667, 57.756194]}, "properties": {"place": "Henly, 36-44m, Vrak"}},
  {"type": "Feature", "id": "337548800320382653", "geometry": {"type": "Point", "coordinates": [11.369361, 57.855833]}, "properties": {"place": "Christians Vrak, 90m, Vrak"}},
  {"type": "Feature", "id": "1424739485975696907", "geometry": {"type": "Point", "coordinates": [10.803333, 57.770833]}, "properties": {"place": "Nordlyset H88, Vrak"}},
  {"type": "Feature", "id": "-6116495988384331388", "geometry": {"type": "Point", "coordinates": [11.170556, 57.922778]}, "properties": {"place": "Ringvraket, 41-45m, Vrak"}},
  {"type": "Feature", "id": "7292839603561823899", "geometry": {"type": "Point", "coordinates": [11.114444, 57.919167]}, "properties": {"place": "Risvraket"}},
  {"type": "Feature", "id": "3309928577662100378", "geometry": {"type": "Point", "coordinates": [11.119444, 58.135000]}, "properties": {"place": "Westvåg"}},
  {"type": "Feature", "id": "609333119129962467", "geometry": {"type": "Point", "coordinates": [11.090556, 58.131667]}, "properties": {"place": "Västbank"}},
  {"type": "Feature", "id": "-7504585248772608388", "geometry": {"type": "Point", "coordinates": [11.268889, 58.243611]}, "properties": {"place": "AMASIS S/S"}},
  {"type": "Feature", "id": "2157446469584161403", "geometry": {"type": "Point", "coordinates": [11.194444, 58.158333]}, "properties": {"place": "Skytteren"}},
  {"type": "Feature", "id": "-4213614979480605602", "geometry": {"type": "Point", "coordinates": [12.005278, 57.318611]}, "properties": {"place": "SATURNUSN S/S"}},
  {"type": "Feature", "id": "-9138205995425659904", "geometry": {"type": "Point", "coordinates": [11.890556, 57.100556]}, "properties": {"place": "HERNODIA S/S"}},
  {"type": "Feature", "id": "2844115626857741009", "geometry": {"type": "Point", "coordinates": [11.860833, 56.850556]}, "properties": {"place": "BLENDA S/S"}},
  {"type": "Feature", "id": "-7504585248772608388", "geometry": {"type": "Point", "coordinates": [11.268889, 58.243611]}, "properties": {"place": "Vrak, 133m"}},
  {"type": "Feature", "id": "2157446469584161403", "geometry": {"type": "Point", "coordinates": [11.194444, 58.158333]}, "properties": {"place": "Vrak"}},
  {"type": "Feature", "id": "-4213614979480605602", "geometry": {"type": "Point", "coordinates": [12.005278, 57.318611]}, "properties": {"place": "Vrak, 24m"}},
  {"type": "Feature", "id": "-9138205995425659904", "geometry": {"type": "Point", "coordinates": [11.890556, 57.100556]}, "properties": {"place": "Vrak, 71m"}},
  {"type": "Feature", "id": "2844115626857741009", "geometry": {"type": "Point", "coordinates": [11.860833, 56.850556]}, "properties": {"place": "Vrak, 30m"}},
  {"type": "Feature", "id": "2945670321944701039", "geometry": {"type": "Point", "coordinates": [11.743889, 57.270000]}, "properties": {"place": "Västra Fladen, Grund 27m, Torsk, Katt, Makrill, Pigghaj"}},
  {"type": "Feature", "id": "3511565431585487870", "geometry": {"type": "Point", "coordinates": [11.418056, 57.388889]}, "properties": {"place": "Stora Böchern, Grund 20m, Torsk, Katt, Makrill"}},
  {"type": "Feature", "id": "-4444216598691087733", "geometry": {"type": "Point", "coordinates": [11.388889, 57.318056]}, "properties": {"place": "Lilla Böchern, Grund 19m, Torsk, Katt, Makrill"}},
  {"type": "Feature", "id": "6992213596287623217", "geometry": {"type": "Point", "coordinates": [11.352500, 57.490556]}, "properties": {"place": "Elake Måns, Sten, Kattställe"}},
  {"type": "Feature", "id": "-3871724182418095891", "geometry": {"type": "Point", "coordinates": [11.743111, 57.272444]}, "properties": {"place": "29:an"}},
  {"type": "Feature", "id": "6161002144049702415", "geometry": {"type": "Point", "coordinates": [11.546472, 57.536500]}, "properties": {"place": "Ragua"}},
  {"type": "Feature", "id": "4746467604769595815", "geometry": {"type": "Point", "coordinates": [10.925917, 58.204611]}, "properties": {"place": "Mambo"}},
  {"type": "Feature", "id": "-8919287655756857505", "geometry": {"type": "Point", "coordinates": [11.259750, 58.023972]}, "properties": {"place": "37:an (mitt på)"}},
  {"type": "Feature", "id": "4194087398464607052", "geometry": {"type": "Point", "coordinates": [11.590278, 57.536111]}, "properties": {"place": "Vtin32, 32m, Kuperad bergsbotten"}},
  {"type": "Feature", "id": "3366249026313767908", "geometry": {"type": "Point", "coordinates": [11.698611, 57.507000]}, "properties": {"place": "Spe20, 20m, Kuperad bergsbotten, Fin kant 20-55m"}},
  {"type": "Feature", "id": "-3680372189791085260", "geometry": {"type": "Point", "coordinates": [11.359528, 57.525667]}, "properties": {"place": "Tysktopp, 37m, Bergstopp"}},
  {"type": "Feature", "id": "3917904945761680742", "geometry": {"type": "Point", "coordinates": [11.413333, 57.948889]}, "properties": {"place": "14 metarn, 14m, Berg, Kanon topp för agnfisk samt gylta"}},
  {"type": "Feature", "id": "6016953029376891519", "geometry": {"type": "Point", "coordinates": [11.404167, 57.873889]}, "properties": {"place": "Lubbegrund, 60m"}},
  {"type": "Feature", "id": "-6278832350874130289", "geometry": {"type": "Point", "coordinates": [11.367500, 57.869167]}, "properties": {"place": "52:an, 52m, Berg"}},
  {"type": "Feature", "id": "2048828301436683602", "geometry": {"type": "Point", "coordinates": [11.255000, 58.037778]}, "properties": {"place": "39:an norr om 37:an, 39m, Berg, Blandade arter"}},
  {"type": "Feature", "id": "-4224645162607412769", "geometry": {"type": "Point", "coordinates": [11.272500, 58.040556]}, "properties": {"place": "Kullarna, 39m, Berg, Katt och torsk"}},
  {"type": "Feature", "id": "-1812530849953028260", "geometry": {"type": "Point", "coordinates": [11.817111, 57.290278]}, "properties": {"place": "Erikeberghällen, Sten/grus/block, Haj och Katt"}},
  {"type": "Feature", "id": "5156531120630761483", "geometry": {"type": "Point", "coordinates": [11.537222, 57.167222]}, "properties": {"place": "Groves Flak, Grus/Sten, Stort område med kuperad botten"}},
  {"type": "Feature", "id": "-785319172458315889", "geometry": {"type": "Point", "coordinates": [11.300333, 57.536000]}, "properties": {"place": "Katteberg, Sten/grus, Kattställe"}},
  {"type": "Feature", "id": "2516208908669478944", "geometry": {"type": "Point", "coordinates": [11.416667, 57.466667]}, "properties": {"place": "Kummelbank, Sten/grus, Bojen på kummelbank"}},
  {"type": "Feature", "id": "8187887433415982515", "geometry": {"type": "Point", "coordinates": [11.708333, 57.404167]}, "properties": {"place": "Väst Lången, Grusås från SO till NV, Blågyltor, makrill, en del torsk"}},
  {"type": "Feature", "id": "5835474895749231167", "geometry": {"type": "Point", "coordinates": [11.525278, 57.058917]}, "properties": {"place": "Liljan, 70tals ställe kokar av 2kgs vitling"}},
  {"type": "Feature", "id": "-3732464023729290534", "geometry": {"type": "Point", "coordinates": [11.714389, 57.449056]}, "properties": {"place": "Kungaberget, 25m, Grus/block, Blågyltor, en del torsk"}},
  {"type": "Feature", "id": "2794497259649142319", "geometry": {"type": "Point", "coordinates": [11.465083, 57.526500]}, "properties": {"place": "Drepanum S/S, Vrak"}},
  {"type": "Feature", "id": "-7537660267025585412", "geometry": {"type": "Point", "coordinates": [11.407222, 57.519167]}, "properties": {"place": "Allans vrak, Vrak"}},
  {"type": "Feature", "id": "5865105229224393093", "geometry": {"type": "Point", "coordinates": [11.601111, 57.291083]}, "properties": {"place": "Ingrid Horn, Vrak"}},
  {"type": "Feature", "id": "-5016168677051971079", "geometry": {"type": "Point", "coordinates": [11.377278, 57.544556]}, "properties": {"place": "Emma, Vrak"}},
  {"type": "Feature", "id": "-8638645287210973938", "geometry": {"type": "Point", "coordinates": [11.273083, 57.554139]}, "properties": {"place": "Lise Katrin, Vrak"}},
  {"type": "Feature", "id": "5338561231799148197", "geometry": {"type": "Point", "coordinates": [11.425028, 57.355500]}, "properties": {"place": "Oberon, Vrak"}},
  {"type": "Feature", "id": "6953618074105044104", "geometry": {"type": "Point", "coordinates": [11.257306, 57.576028]}, "properties": {"place": "Syrenen, Vrak"}},
  {"type": "Feature", "id": "816921871778183239", "geometry": {"type": "Point", "coordinates": [11.360750, 57.545972]}, "properties": {"place": "Örjan, Vrak"}},
  {"type": "Feature", "id": "5385304390847619280", "geometry": {"type": "Point", "coordinates": [11.124917, 57.768333]}, "properties": {"place": "Säker pos, Vrak"}},
  {"type": "Feature", "id": "-6973263796374310684", "geometry": {"type": "Point", "coordinates": [11.114722, 57.755361]}, "properties": {"place": "Henly, 7-43m, Vrak"}},
  {"type": "Feature", "id": "-5975060796392849501", "geometry": {"type": "Point", "coordinates": [10.890000, 57.710361]}, "properties": {"place": "Wolturnus S/S, 10-34m, Vrak Längd 57.7m"}},
  {"type": "Feature", "id": "1586503108427104823", "geometry": {"type": "Point", "coordinates": [11.128083, 57.777889]}, "properties": {"place": "Ernst, 6-45m, Vrak Längd 81m"}},
  {"type": "Feature", "id": "-6590432112337031333", "geometry": {"type": "Point", "coordinates": [11.092139, 57.702306]}, "properties": {"place": "Warpath S/S, 38m, Vrak"}},
  {"type": "Feature", "id": "-6413695290688152248", "geometry": {"type": "Point", "coordinates": [11.123750, 57.755250]}, "properties": {"place": "Jämtland S/S, 8-42m, Vrak"}},
  {"type": "Feature", "id": "2394626615918342249", "geometry": {"type": "Point", "coordinates": [10.520944, 58.442083]}, "properties": {"place": "Bratten"}},
  {"type": "Feature", "id": "-159961784432515293", "geometry": {"type": "Point", "coordinates": [10.518056, 58.443056]}, "properties": {"place": "Bratten"}},
  {"type": "Feature", "id": "253959942998235768", "geometry": {"type": "Point", "coordinates": [11.407444, 57.883361]}, "properties": {"place": "Lassemaja"}},
  {"type": "Feature", "id": "-4224645162607412769", "geometry": {"type": "Point", "coordinates": [11.272500, 58.040556]}, "properties": {"place": "Kullarna"}},
  {"type": "Feature", "id": "-2017982518050058585", "geometry": {"type": "Point", "coordinates": [11.435556, 57.916111]}, "properties": {"place": "Kafferasta 1"}},
  {"type": "Feature", "id": "2644711425836523843", "geometry": {"type": "Point", "coordinates": [11.141944, 58.126944]}, "properties": {"place": "Knallberget"}},
  {"type": "Feature", "id": "970651241867484234", "geometry": {"type": "Point", "coordinates": [11.455306, 57.602194]}, "properties": {"place": "Briggen, Vrak"}},
  {"type": "Feature", "id": "-780695275847709468", "geometry": {"type": "Point", "coordinates": [10.530556, 58.458361]}, "properties": {"place": "Novi, Ligger i nord på Bratten, Vrak"}},
  {"type": "Feature", "id": "-130942538923959896", "geometry": {"type": "Point", "coordinates": [11.388944, 57.671194]}, "properties": {"place": "Juri, Estländaren är ett annat namn på vraket, Vrak"}},
  {"type": "Feature", "id": "2058670133169965620", "geometry": {"type": "Point", "coordinates": [10.500833, 57.949722]}, "properties": {"place": "Lever Maj, Vrak"}},
  {"type": "Feature", "id": "1345116580868075566", "geometry": {"type": "Point", "coordinates": [11.139167, 58.146389]}, "properties": {"place": "Fjutten, Vrak"}},
  {"type": "Feature", "id": "5360082307542735474", "geometry": {"type": "Point", "coordinates": [11.054556, 57.842639]}, "properties": {"place": "Inge Birthe S127, Vrak"}},
  {"type": "Feature", "id": "5413282093524045847", "geometry": {"type": "Point", "coordinates": [11.198056, 58.160556]}, "properties": {"place": "Valkokaren"}},
  {"type": "Feature", "id": "-2883588646312521101", "geometry": {"type": "Point", "coordinates": [11.001944, 58.121111]}, "properties": {"place": "Duvan, 138-148m, Långa, lubb, torsk och sej"}}
]}